{
  "type": "FeatureCollection",
  "features": [
    {"type":"Feature","geometry":{"type":"Point","coordinates":[-46.6720,-23.5630]},"properties":{"name":"Rua dos Pinheiros (polo gastronômico)","category":"restaurant","subcategory":"polo","neighborhood":"Pinheiros"}},
    {"type":"Feature","geometry":{"type":"Point","coordinates":[-46.6850,-23.5580]},"properties":{"name":"Vila Madalena (bares e restaurantes)","category":"restaurant","subcategory":"polo","neighborhood":"Pinheiros"}},
    {"type":"Feature","geometry":{"type":"Point","coordinates":[-46.6770,-23.5650]},"properties":{"name":"Mercado de Pinheiros","category":"restaurant","subcategory":"mercado","neighborhood":"Pinheiros"}},
    {"type":"Feature","geometry":{"type":"Point","coordinates":[-46.6560,-23.5610]},"properties":{"name":"Rua Augusta (gastronomia)","category":"restaurant","subcategory":"polo","neighborhood":"Consolação"}},
    {"type":"Feature","geometry":{"type":"Point","coordinates":[-46.6540,-23.5530]},"properties":{"name":"Rua Oscar Freire (restaurantes)","category":"restaurant","subcategory":"polo","neighborhood":"Consolação"}},
    {"type":"Feature","geometry":{"type":"Point","coordinates":[-46.6450,-23.5620]},"properties":{"name":"Bixiga — polo italiano","category":"restaurant","subcategory":"polo","neighborhood":"Bela Vista"}},
    {"type":"Feature","geometry":{"type":"Point","coordinates":[-46.6420,-23.5560]},"properties":{"name":"Liberdade (gastronomia asiática)","category":"restaurant","subcategory":"polo","neighborhood":"Bela Vista"}},
    {"type":"Feature","geometry":{"type":"Point","coordinates":[-46.6780,-23.5870]},"properties":{"name":"Rua Joaquim Floriano (restaurantes)","category":"restaurant","subcategory":"polo","neighborhood":"Itaim Bibi"}},
    {"type":"Feature","geometry":{"type":"Point","coordinates":[-46.6700,-23.5900]},"properties":{"name":"Vila Olímpia (gastronomia)","category":"restaurant","subcategory":"polo","neighborhood":"Itaim Bibi"}},
    {"type":"Feature","geometry":{"type":"Point","coordinates":[-46.6660,-23.6010]},"properties":{"name":"Alameda dos Anapurus (restaurantes)","category":"restaurant","subcategory":"polo","neighborhood":"Moema"}},
    {"type":"Feature","geometry":{"type":"Point","coordinates":[-46.6620,-23.5970]},"properties":{"name":"Moema (polo gastronômico)","category":"restaurant","subcategory":"polo","neighborhood":"Moema"}},
    {"type":"Feature","geometry":{"type":"Point","coordinates":[-46.6680,-23.5650]},"properties":{"name":"Jardins (alta gastronomia)","category":"restaurant","subcategory":"polo","neighborhood":"Jardim Paulista"}},
    {"type":"Feature","geometry":{"type":"Point","coordinates":[-46.6350,-23.5910]},"properties":{"name":"Vila Mariana (restaurantes)","category":"restaurant","subcategory":"polo","neighborhood":"Vila Mariana"}},
    {"type":"Feature","geometry":{"type":"Point","coordinates":[-46.6650,-23.6220]},"properties":{"name":"Campo Belo (gastronomia)","category":"restaurant","subcategory":"polo","neighborhood":"Campo Belo"}},
    {"type":"Feature","geometry":{"type":"Point","coordinates":[-46.6430,-23.5430]},"properties":{"name":"República (centro gastronômico)","category":"restaurant","subcategory":"polo","neighborhood":"República"}},
    {"type":"Feature","geometry":{"type":"Point","coordinates":[-46.6810,-23.5280]},"properties":{"name":"Barra Funda (restaurantes)","category":"restaurant","subcategory":"polo","neighborhood":"Barra Funda"}},

    {"type":"Feature","geometry":{"type":"Point","coordinates":[-46.6730,-23.5870]},"properties":{"name":"JK Iguatemi — centro corporativo","category":"corporate","subcategory":"hub","neighborhood":"Itaim Bibi"}},
    {"type":"Feature","geometry":{"type":"Point","coordinates":[-46.6910,-23.5870]},"properties":{"name":"Faria Lima — distrito financeiro","category":"corporate","subcategory":"hub","neighborhood":"Itaim Bibi"}},
    {"type":"Feature","geometry":{"type":"Point","coordinates":[-46.6770,-23.5910]},"properties":{"name":"Vila Olímpia — tech hub","category":"corporate","subcategory":"hub","neighborhood":"Itaim Bibi"}},
    {"type":"Feature","geometry":{"type":"Point","coordinates":[-46.6580,-23.5640]},"properties":{"name":"FIESP / Av. Paulista","category":"corporate","subcategory":"centro de convenções","neighborhood":"Consolação"}},
    {"type":"Feature","geometry":{"type":"Point","coordinates":[-46.6530,-23.5580]},"properties":{"name":"Av. Paulista — escritórios","category":"corporate","subcategory":"hub","neighborhood":"Consolação"}},
    {"type":"Feature","geometry":{"type":"Point","coordinates":[-46.6660,-23.5640]},"properties":{"name":"Jardins — escritórios premium","category":"corporate","subcategory":"hub","neighborhood":"Jardim Paulista"}},
    {"type":"Feature","geometry":{"type":"Point","coordinates":[-46.6430,-23.5400]},"properties":{"name":"Centro histórico — escritórios","category":"corporate","subcategory":"hub","neighborhood":"República"}},
    {"type":"Feature","geometry":{"type":"Point","coordinates":[-46.6750,-23.5630]},"properties":{"name":"Pinheiros — coworkings","category":"corporate","subcategory":"coworking","neighborhood":"Pinheiros"}},
    {"type":"Feature","geometry":{"type":"Point","coordinates":[-46.6350,-23.5860]},"properties":{"name":"Vila Mariana — escritórios","category":"corporate","subcategory":"hub","neighborhood":"Vila Mariana"}},
    {"type":"Feature","geometry":{"type":"Point","coordinates":[-46.6820,-23.5300]},"properties":{"name":"Memorial da América Latina — eventos","category":"corporate","subcategory":"centro de convenções","neighborhood":"Barra Funda"}},

    {"type":"Feature","geometry":{"type":"Point","coordinates":[-46.6555,-23.5614]},"properties":{"name":"MASP","category":"tourist","subcategory":"museu","neighborhood":"Consolação"}},
    {"type":"Feature","geometry":{"type":"Point","coordinates":[-46.6574,-23.5872]},"properties":{"name":"Parque Ibirapuera","category":"tourist","subcategory":"parque","neighborhood":"Vila Mariana"}},
    {"type":"Feature","geometry":{"type":"Point","coordinates":[-46.6530,-23.5610]},"properties":{"name":"Av. Paulista (passeio cultural)","category":"tourist","subcategory":"ponto turístico","neighborhood":"Consolação"}},
    {"type":"Feature","geometry":{"type":"Point","coordinates":[-46.6520,-23.5500]},"properties":{"name":"Japan House","category":"tourist","subcategory":"museu","neighborhood":"Consolação"}},
    {"type":"Feature","geometry":{"type":"Point","coordinates":[-46.6570,-23.5650]},"properties":{"name":"Casa das Rosas","category":"tourist","subcategory":"museu","neighborhood":"Consolação"}},
    {"type":"Feature","geometry":{"type":"Point","coordinates":[-46.6340,-23.5440]},"properties":{"name":"Theatro Municipal","category":"tourist","subcategory":"teatro","neighborhood":"República"}},
    {"type":"Feature","geometry":{"type":"Point","coordinates":[-46.6380,-23.5470]},"properties":{"name":"Edifício Itália — vista panorâmica","category":"tourist","subcategory":"ponto turístico","neighborhood":"República"}},
    {"type":"Feature","geometry":{"type":"Point","coordinates":[-46.6410,-23.5550]},"properties":{"name":"Liberdade — arco e cultura japonesa","category":"tourist","subcategory":"ponto turístico","neighborhood":"Bela Vista"}},
    {"type":"Feature","geometry":{"type":"Point","coordinates":[-46.6700,-23.5610]},"properties":{"name":"Beco do Batman — arte urbana","category":"tourist","subcategory":"ponto turístico","neighborhood":"Pinheiros"}},
    {"type":"Feature","geometry":{"type":"Point","coordinates":[-46.6900,-23.5610]},"properties":{"name":"Instituto Tomie Ohtake","category":"tourist","subcategory":"museu","neighborhood":"Pinheiros"}},
    {"type":"Feature","geometry":{"type":"Point","coordinates":[-46.6550,-23.5850]},"properties":{"name":"MAM — Museu de Arte Moderna","category":"tourist","subcategory":"museu","neighborhood":"Vila Mariana"}},
    {"type":"Feature","geometry":{"type":"Point","coordinates":[-46.6580,-23.5880]},"properties":{"name":"Museu Afro Brasil","category":"tourist","subcategory":"museu","neighborhood":"Vila Mariana"}},
    {"type":"Feature","geometry":{"type":"Point","coordinates":[-46.6730,-23.5680]},"properties":{"name":"A Casa do Porco (gastronomia icônica)","category":"tourist","subcategory":"ponto turístico","neighborhood":"Jardim Paulista"}},

    {"type":"Feature","geometry":{"type":"Point","coordinates":[-46.6917,-23.5567]},"properties":{"name":"Estação Pinheiros","category":"metro","subcategory":"Linha 4 - Amarela","neighborhood":"Pinheiros"}},
    {"type":"Feature","geometry":{"type":"Point","coordinates":[-46.6860,-23.5530]},"properties":{"name":"Estação Fradique Coutinho","category":"metro","subcategory":"Linha 4 - Amarela","neighborhood":"Pinheiros"}},
    {"type":"Feature","geometry":{"type":"Point","coordinates":[-46.6720,-23.5560]},"properties":{"name":"Estação Oscar Freire","category":"metro","subcategory":"Linha 4 - Amarela","neighborhood":"Pinheiros"}},
    {"type":"Feature","geometry":{"type":"Point","coordinates":[-46.6910,-23.5670]},"properties":{"name":"Estação Faria Lima","category":"metro","subcategory":"Linha 4 - Amarela","neighborhood":"Itaim Bibi"}},
    {"type":"Feature","geometry":{"type":"Point","coordinates":[-46.6562,-23.5570]},"properties":{"name":"Estação Consolação","category":"metro","subcategory":"Linha 2 - Verde","neighborhood":"Consolação"}},
    {"type":"Feature","geometry":{"type":"Point","coordinates":[-46.6530,-23.5560]},"properties":{"name":"Estação Trianon-MASP","category":"metro","subcategory":"Linha 2 - Verde","neighborhood":"Consolação"}},
    {"type":"Feature","geometry":{"type":"Point","coordinates":[-46.6510,-23.5640]},"properties":{"name":"Estação Brigadeiro","category":"metro","subcategory":"Linha 2 - Verde","neighborhood":"Bela Vista"}},
    {"type":"Feature","geometry":{"type":"Point","coordinates":[-46.6430,-23.5730]},"properties":{"name":"Estação Paraíso","category":"metro","subcategory":"Linha 1/2","neighborhood":"Bela Vista"}},
    {"type":"Feature","geometry":{"type":"Point","coordinates":[-46.6380,-23.5870]},"properties":{"name":"Estação Ana Rosa","category":"metro","subcategory":"Linha 1 - Azul","neighborhood":"Vila Mariana"}},
    {"type":"Feature","geometry":{"type":"Point","coordinates":[-46.6330,-23.5960]},"properties":{"name":"Estação Vila Mariana","category":"metro","subcategory":"Linha 1 - Azul","neighborhood":"Vila Mariana"}},
    {"type":"Feature","geometry":{"type":"Point","coordinates":[-46.6662,-23.6013]},"properties":{"name":"Estação Moema","category":"metro","subcategory":"Linha 5 - Lilás","neighborhood":"Moema"}},
    {"type":"Feature","geometry":{"type":"Point","coordinates":[-46.6660,-23.6100]},"properties":{"name":"Estação Eucaliptos","category":"metro","subcategory":"Linha 5 - Lilás","neighborhood":"Moema"}},
    {"type":"Feature","geometry":{"type":"Point","coordinates":[-46.6810,-23.5265]},"properties":{"name":"Estação Palmeiras-Barra Funda","category":"metro","subcategory":"Linha 3 - Vermelha","neighborhood":"Barra Funda"}},
    {"type":"Feature","geometry":{"type":"Point","coordinates":[-46.6280,-23.5050]},"properties":{"name":"Estação Santana","category":"metro","subcategory":"Linha 1 - Azul","neighborhood":"Santana"}},

    {"type":"Feature","geometry":{"type":"Point","coordinates":[-46.6820,-23.5270]},"properties":{"name":"Allianz Parque","category":"events","subcategory":"arena","neighborhood":"Barra Funda"}},
    {"type":"Feature","geometry":{"type":"Point","coordinates":[-46.6800,-23.5250]},"properties":{"name":"Espaço das Américas","category":"events","subcategory":"casa de shows","neighborhood":"Barra Funda"}},
    {"type":"Feature","geometry":{"type":"Point","coordinates":[-46.6560,-23.5870]},"properties":{"name":"Pavilhão da Bienal","category":"events","subcategory":"centro de eventos","neighborhood":"Vila Mariana"}},
    {"type":"Feature","geometry":{"type":"Point","coordinates":[-46.6390,-23.5480]},"properties":{"name":"Sala São Paulo","category":"events","subcategory":"concerto","neighborhood":"República"}},
    {"type":"Feature","geometry":{"type":"Point","coordinates":[-46.6560,-23.5630]},"properties":{"name":"Auditório Ibirapuera","category":"events","subcategory":"auditório","neighborhood":"Consolação"}},
    {"type":"Feature","geometry":{"type":"Point","coordinates":[-46.6440,-23.5570]},"properties":{"name":"Teatro Renault","category":"events","subcategory":"teatro","neighborhood":"Bela Vista"}},
    {"type":"Feature","geometry":{"type":"Point","coordinates":[-46.6750,-23.5680]},"properties":{"name":"Audio Club","category":"events","subcategory":"casa de shows","neighborhood":"Pinheiros"}},
    {"type":"Feature","geometry":{"type":"Point","coordinates":[-46.6700,-23.5850]},"properties":{"name":"Vibra São Paulo","category":"events","subcategory":"casa de shows","neighborhood":"Itaim Bibi"}},
    {"type":"Feature","geometry":{"type":"Point","coordinates":[-46.6600,-23.5950]},"properties":{"name":"São Paulo Expo","category":"events","subcategory":"centro de convenções","neighborhood":"Vila Mariana"}},
    {"type":"Feature","geometry":{"type":"Point","coordinates":[-46.6350,-23.5430]},"properties":{"name":"Theatro Municipal — eventos","category":"events","subcategory":"teatro","neighborhood":"República"}}
  ]
}
